$GPRMC,1587.017595,A,3734.458719,N,12224.00152,W,,,,,,A
$GPRMC,1587.067637,A,3734.459412,N,12224.00197,W,,,,,,A
$GPRMC,1587.1176,A,3734.460106,N,12224.00242,W,,,,,,A
$GPRMC,1587.167596,A,3734.460801,N,12224.00287,W,,,,,,A
$GPRMC,1587.217595,A,3734.461498,N,12224.00332,W,,,,,,A
$GPRMC,1587.267693,A,3734.462194,N,12224.00377,W,,,,,,A
$GPRMC,1587.317591,A,3734.462891,N,12224.00421,W,,,,,,A
$GPRMC,1587.367594,A,3734.463589,N,12224.00465,W,,,,,,A
$GPRMC,1587.417593,A,3734.464288,N,12224.0051,W,,,,,,A
$GPRMC,1587.467619,A,3734.464987,N,12224.00554,W,,,,,,A
$GPRMC,1587.517599,A,3734.465686,N,12224.00598,W,,,,,,A
$GPRMC,1587.567592,A,3734.466387,N,12224.00641,W,,,,,,A
$GPRMC,1587.617603,A,3734.467088,N,12224.00685,W,,,,,,A
$GPRMC,1587.667589,A,3734.46779,N,12224.00728,W,,,,,,A
$GPRMC,1587.717584,A,3734.468493,N,12224.00772,W,,,,,,A
$GPRMC,1587.767594,A,3734.469196,N,12224.00815,W,,,,,,A
$GPRMC,1587.817583,A,3734.469901,N,12224.00858,W,,,,,,A
$GPRMC,1587.86759,A,3734.470606,N,12224.009,W,,,,,,A
$GPRMC,1587.917587,A,3734.471311,N,12224.00943,W,,,,,,A
$GPRMC,1587.967584,A,3734.472018,N,12224.00985,W,,,,,,A
$GPRMC,1588.01759,A,3734.472725,N,12224.01028,W,,,,,,A
$GPRMC,1588.067582,A,3734.473432,N,12224.0107,W,,,,,,A
$GPRMC,1588.117583,A,3734.47414,N,12224.01112,W,,,,,,A
$GPRMC,1588.167581,A,3734.474848,N,12224.01153,W,,,,,,A
$GPRMC,1588.217577,A,3734.475558,N,12224.01195,W,,,,,,A
$GPRMC,1588.267605,A,3734.476268,N,12224.01236,W,,,,,,A
$GPRMC,1588.317586,A,3734.476978,N,12224.01278,W,,,,,,A
$GPRMC,1588.367589,A,3734.47769,N,12224.01319,W,,,,,,A
$GPRMC,1588.41759,A,3734.478401,N,12224.0136,W,,,,,,A
$GPRMC,1588.467578,A,3734.479113,N,12224.014,W,,,,,,A
$GPRMC,1588.517573,A,3734.479826,N,12224.01441,W,,,,,,A
$GPRMC,1588.567581,A,3734.480539,N,12224.01481,W,,,,,,A
$GPRMC,1588.617573,A,3734.481253,N,12224.01521,W,,,,,,A
$GPRMC,1588.667573,A,3734.481967,N,12224.01561,W,,,,,,A
$GPRMC,1588.717589,A,3734.482681,N,12224.01601,W,,,,,,A
$GPRMC,1588.767586,A,3734.483396,N,12224.01641,W,,,,,,A
$GPRMC,1588.81759,A,3734.484112,N,12224.0168,W,,,,,,A
$GPRMC,1588.867572,A,3734.484828,N,12224.0172,W,,,,,,A
$GPRMC,1588.917568,A,3734.485545,N,12224.01759,W,,,,,,A
$GPRMC,1588.967575,A,3734.486263,N,12224.01798,W,,,,,,A
$GPRMC,1589.017577,A,3734.486981,N,12224.01837,W,,,,,,A
$GPRMC,1589.067572,A,3734.487699,N,12224.01875,W,,,,,,A
$GPRMC,1589.117565,A,3734.488418,N,12224.01914,W,,,,,,A
$GPRMC,1589.167571,A,3734.489137,N,12224.01952,W,,,,,,A
$GPRMC,1589.217571,A,3734.489857,N,12224.0199,W,,,,,,A
$GPRMC,1589.267584,A,3734.490577,N,12224.02028,W,,,,,,A
$GPRMC,1589.317563,A,3734.491298,N,12224.02065,W,,,,,,A
$GPRMC,1589.367566,A,3734.492019,N,12224.02103,W,,,,,,A
$GPRMC,1589.417564,A,3734.492741,N,12224.0214,W,,,,,,A
$GPRMC,1589.467598,A,3734.493463,N,12224.02177,W,,,,,,A
$GPRMC,1589.51757,A,3734.494185,N,12224.02214,W,,,,,,A
$GPRMC,1589.567558,A,3734.494908,N,12224.02251,W,,,,,,A
$GPRMC,1589.617561,A,3734.495632,N,12224.02288,W,,,,,,A
$GPRMC,1589.667591,A,3734.496356,N,12224.02324,W,,,,,,A
$GPRMC,1589.717591,A,3734.49708,N,12224.02361,W,,,,,,A
$GPRMC,1589.767564,A,3734.497805,N,12224.02397,W,,,,,,A
$GPRMC,1589.817559,A,3734.49853,N,12224.02433,W,,,,,,A
$GPRMC,1589.86756,A,3734.499256,N,12224.02468,W,,,,,,A
$GPRMC,1589.917556,A,3734.499983,N,12224.02504,W,,,,,,A
$GPRMC,1589.96756,A,3734.50071,N,12224.02539,W,,,,,,A
$GPRMC,1590.017553,A,3734.501438,N,12224.02575,W,,,,,,A
$GPRMC,1590.067554,A,3734.502166,N,12224.0261,W,,,,,,A
$GPRMC,1590.117556,A,3734.502894,N,12224.02645,W,,,,,,A
$GPRMC,1590.167557,A,3734.503623,N,12224.02679,W,,,,,,A
$GPRMC,1590.217548,A,3734.504352,N,12224.02714,W,,,,,,A
$GPRMC,1590.267565,A,3734.50508,N,12224.02748,W,,,,,,A
$GPRMC,1590.317545,A,3734.50581,N,12224.02782,W,,,,,,A
$GPRMC,1590.367558,A,3734.50654,N,12224.02817,W,,,,,,A
$GPRMC,1590.417554,A,3734.507271,N,12224.02851,W,,,,,,A
$GPRMC,1590.467562,A,3734.508001,N,12224.02885,W,,,,,,A
$GPRMC,1590.517567,A,3734.508732,N,12224.02918,W,,,,,,A
$GPRMC,1590.567562,A,3734.509463,N,12224.02952,W,,,,,,A
$GPRMC,1590.617544,A,3734.510194,N,12224.02985,W,,,,,,A
$GPRMC,1590.667548,A,3734.510925,N,12224.03019,W,,,,,,A
$GPRMC,1590.717548,A,3734.511656,N,12224.03052,W,,,,,,A
$GPRMC,1590.767545,A,3734.512387,N,12224.03086,W,,,,,,A
$GPRMC,1590.81754,A,3734.513119,N,12224.03119,W,,,,,,A
$GPRMC,1590.867547,A,3734.513851,N,12224.03152,W,,,,,,A
$GPRMC,1590.917534,A,3734.514584,N,12224.03185,W,,,,,,A
$GPRMC,1590.967547,A,3734.515317,N,12224.03218,W,,,,,,A
$GPRMC,1591.017561,A,3734.516049,N,12224.0325,W,,,,,,A
$GPRMC,1591.067539,A,3734.516782,N,12224.03283,W,,,,,,A
$GPRMC,1591.117542,A,3734.517515,N,12224.03315,W,,,,,,A
$GPRMC,1591.167544,A,3734.518247,N,12224.03348,W,,,,,,A
$GPRMC,1591.217538,A,3734.51898,N,12224.0338,W,,,,,,A
$GPRMC,1591.267538,A,3734.519714,N,12224.03412,W,,,,,,A
$GPRMC,1591.317534,A,3734.520447,N,12224.03444,W,,,,,,A
$GPRMC,1591.367543,A,3734.52118,N,12224.03477,W,,,,,,A
$GPRMC,1591.417544,A,3734.521914,N,12224.03509,W,,,,,,A
$GPRMC,1591.467538,A,3734.522647,N,12224.03541,W,,,,,,A
$GPRMC,1591.517552,A,3734.523381,N,12224.03573,W,,,,,,A
$GPRMC,1591.567549,A,3734.524114,N,12224.03604,W,,,,,,A
$GPRMC,1591.617531,A,3734.524848,N,12224.03636,W,,,,,,A
$GPRMC,1591.667565,A,3734.525582,N,12224.03668,W,,,,,,A
$GPRMC,1591.717529,A,3734.526316,N,12224.03699,W,,,,,,A
$GPRMC,1591.767533,A,3734.52705,N,12224.03731,W,,,,,,A
$GPRMC,1591.817527,A,3734.527784,N,12224.03762,W,,,,,,A
$GPRMC,1591.867525,A,3734.528518,N,12224.03794,W,,,,,,A
$GPRMC,1591.917528,A,3734.529252,N,12224.03825,W,,,,,,A
$GPRMC,1591.967534,A,3734.529986,N,12224.03856,W,,,,,,A
$GPRMC,1592.017527,A,3734.53072,N,12224.03888,W,,,,,,A
$GPRMC,1592.06753,A,3734.531454,N,12224.03919,W,,,,,,A
$GPRMC,1592.117525,A,3734.532188,N,12224.0395,W,,,,,,A
$GPRMC,1592.16752,A,3734.532922,N,12224.03981,W,,,,,,A
$GPRMC,1592.217522,A,3734.533655,N,12224.04012,W,,,,,,A
$GPRMC,1592.267518,A,3734.534388,N,12224.04044,W,,,,,,A
$GPRMC,1592.317522,A,3734.535122,N,12224.04075,W,,,,,,A
$GPRMC,1592.367528,A,3734.535855,N,12224.04106,W,,,,,,A
$GPRMC,1592.417553,A,3734.536588,N,12224.04137,W,,,,,,A
$GPRMC,1592.46752,A,3734.537321,N,12224.04168,W,,,,,,A
$GPRMC,1592.517527,A,3734.538054,N,12224.04199,W,,,,,,A
$GPRMC,1592.567526,A,3734.538786,N,12224.0423,W,,,,,,A
$GPRMC,1592.617517,A,3734.539519,N,12224.04261,W,,,,,,A
$GPRMC,1592.667513,A,3734.540252,N,12224.04292,W,,,,,,A
$GPRMC,1592.717536,A,3734.540984,N,12224.04323,W,,,,,,A
$GPRMC,1592.767538,A,3734.541717,N,12224.04353,W,,,,,,A
$GPRMC,1592.81753,A,3734.54245,N,12224.04384,W,,,,,,A
$GPRMC,1592.867519,A,3734.543182,N,12224.04415,W,,,,,,A
$GPRMC,1592.917522,A,3734.543914,N,12224.04446,W,,,,,,A
$GPRMC,1592.967515,A,3734.544646,N,12224.04477,W,,,,,,A
$GPRMC,1593.017508,A,3734.545379,N,12224.04508,W,,,,,,A
$GPRMC,1593.067531,A,3734.546111,N,12224.04538,W,,,,,,A
$GPRMC,1593.117565,A,3734.546842,N,12224.04569,W,,,,,,A
$GPRMC,1593.16751,A,3734.547574,N,12224.046,W,,,,,,A
$GPRMC,1593.217513,A,3734.548306,N,12224.0463,W,,,,,,A
$GPRMC,1593.267513,A,3734.549038,N,12224.04661,W,,,,,,A
$GPRMC,1593.317522,A,3734.54977,N,12224.04692,W,,,,,,A
$GPRMC,1593.367517,A,3734.550501,N,12224.04723,W,,,,,,A
$GPRMC,1593.417523,A,3734.551232,N,12224.04753,W,,,,,,A
$GPRMC,1593.467509,A,3734.551963,N,12224.04784,W,,,,,,A
$GPRMC,1593.517514,A,3734.552694,N,12224.04815,W,,,,,,A
$GPRMC,1593.567504,A,3734.553425,N,12224.04845,W,,,,,,A
$GPRMC,1593.617498,A,3734.554157,N,12224.04876,W,,,,,,A
$GPRMC,1593.667591,A,3734.554886,N,12224.04907,W,,,,,,A
$GPRMC,1593.717509,A,3734.555617,N,12224.04938,W,,,,,,A
$GPRMC,1593.767503,A,3734.556347,N,12224.04968,W,,,,,,A
$GPRMC,1593.8175,A,3734.557077,N,12224.04999,W,,,,,,A
$GPRMC,1593.867498,A,3734.557807,N,12224.0503,W,,,,,,A
$GPRMC,1593.917515,A,3734.558536,N,12224.0506,W,,,,,,A
$GPRMC,1593.967507,A,3734.559265,N,12224.05091,W,,,,,,A
$GPRMC,1594.017496,A,3734.559995,N,12224.05122,W,,,,,,A
$GPRMC,1594.067502,A,3734.560725,N,12224.05152,W,,,,,,A
$GPRMC,1594.11757,A,3734.561454,N,12224.05183,W,,,,,,A
$GPRMC,1594.167496,A,3734.562183,N,12224.05214,W,,,,,,A
$GPRMC,1594.217528,A,3734.562911,N,12224.05244,W,,,,,,A
$GPRMC,1594.267499,A,3734.56364,N,12224.05275,W,,,,,,A
$GPRMC,1594.317493,A,3734.564368,N,12224.05306,W,,,,,,A
$GPRMC,1594.367501,A,3734.565096,N,12224.05336,W,,,,,,A
$GPRMC,1594.417493,A,3734.565824,N,12224.05367,W,,,,,,A
$GPRMC,1594.467496,A,3734.566552,N,12224.05397,W,,,,,,A
$GPRMC,1594.517489,A,3734.567279,N,12224.05428,W,,,,,,A
$GPRMC,1594.567497,A,3734.568006,N,12224.05459,W,,,,,,A
$GPRMC,1594.617488,A,3734.568734,N,12224.05489,W,,,,,,A
$GPRMC,1594.667495,A,3734.56946,N,12224.0552,W,,,,,,A
$GPRMC,1594.717495,A,3734.570187,N,12224.05551,W,,,,,,A
$GPRMC,1594.767494,A,3734.570913,N,12224.05581,W,,,,,,A
$GPRMC,1594.817483,A,3734.57164,N,12224.05612,W,,,,,,A
$GPRMC,1594.867495,A,3734.572366,N,12224.05643,W,,,,,,A
$GPRMC,1594.917483,A,3734.573092,N,12224.05674,W,,,,,,A
$GPRMC,1594.967513,A,3734.573817,N,12224.05704,W,,,,,,A
$GPRMC,1595.017482,A,3734.574543,N,12224.05735,W,,,,,,A
$GPRMC,1595.067485,A,3734.575269,N,12224.05766,W,,,,,,A
$GPRMC,1595.117484,A,3734.575995,N,12224.05797,W,,,,,,A
$GPRMC,1595.167485,A,3734.576721,N,12224.05828,W,,,,,,A
$GPRMC,1595.217479,A,3734.577446,N,12224.05858,W,,,,,,A
$GPRMC,1595.267478,A,3734.578172,N,12224.05889,W,,,,,,A
$GPRMC,1595.317479,A,3734.578898,N,12224.0592,W,,,,,,A
$GPRMC,1595.367484,A,3734.579624,N,12224.05951,W,,,,,,A
$GPRMC,1595.417476,A,3734.58035,N,12224.05982,W,,,,,,A
$GPRMC,1595.467482,A,3734.581076,N,12224.06013,W,,,,,,A
$GPRMC,1595.517491,A,3734.581802,N,12224.06043,W,,,,,,A
$GPRMC,1595.56748,A,3734.582527,N,12224.06074,W,,,,,,A
$GPRMC,1595.61748,A,3734.583253,N,12224.06105,W,,,,,,A
$GPRMC,1595.667477,A,3734.583979,N,12224.06136,W,,,,,,A
$GPRMC,1595.71749,A,3734.584705,N,12224.06167,W,,,,,,A
$GPRMC,1595.767477,A,3734.585431,N,12224.06198,W,,,,,,A
$GPRMC,1595.817482,A,3734.586158,N,12224.06228,W,,,,,,A
$GPRMC,1595.867486,A,3734.586884,N,12224.06259,W,,,,,,A
$GPRMC,1595.917484,A,3734.587611,N,12224.0629,W,,,,,,A
$GPRMC,1595.967475,A,3734.588337,N,12224.06321,W,,,,,,A
$GPRMC,1596.017476,A,3734.589064,N,12224.06352,W,,,,,,A
$GPRMC,1596.06747,A,3734.589791,N,12224.06382,W,,,,,,A
$GPRMC,1596.117466,A,3734.590518,N,12224.06413,W,,,,,,A
$GPRMC,1596.167492,A,3734.591245,N,12224.06444,W,,,,,,A
$GPRMC,1596.217465,A,3734.591972,N,12224.06475,W,,,,,,A
$GPRMC,1596.267477,A,3734.592699,N,12224.06506,W,,,,,,A
$GPRMC,1596.317469,A,3734.593426,N,12224.06537,W,,,,,,A
$GPRMC,1596.367467,A,3734.594154,N,12224.06568,W,,,,,,A
$GPRMC,1596.417529,A,3734.59488,N,12224.06598,W,,,,,,A
$GPRMC,1596.467462,A,3734.595607,N,12224.06629,W,,,,,,A
$GPRMC,1596.517461,A,3734.596334,N,12224.0666,W,,,,,,A
$GPRMC,1596.567464,A,3734.597061,N,12224.06691,W,,,,,,A
$GPRMC,1596.617459,A,3734.597789,N,12224.06722,W,,,,,,A
$GPRMC,1596.667464,A,3734.598516,N,12224.06753,W,,,,,,A
$GPRMC,1596.717459,A,3734.599243,N,12224.06784,W,,,,,,A
$GPRMC,1596.767457,A,3734.59997,N,12224.06815,W,,,,,,A
$GPRMC,1596.817457,A,3734.600697,N,12224.06845,W,,,,,,A
$GPRMC,1596.867462,A,3734.601424,N,12224.06876,W,,,,,,A
$GPRMC,1596.917451,A,3734.602152,N,12224.06907,W,,,,,,A
$GPRMC,1596.967471,A,3734.602878,N,12224.06938,W,,,,,,A
$GPRMC,1597.01746,A,3734.603604,N,12224.06969,W,,,,,,A
$GPRMC,1597.067461,A,3734.604331,N,12224.06999,W,,,,,,A
$GPRMC,1597.117467,A,3734.605058,N,12224.0703,W,,,,,,A
$GPRMC,1597.167461,A,3734.605785,N,12224.07061,W,,,,,,A
$GPRMC,1597.217469,A,3734.606512,N,12224.07092,W,,,,,,A
$GPRMC,1597.267454,A,3734.60724,N,12224.07123,W,,,,,,A
$GPRMC,1597.317473,A,3734.607968,N,12224.07153,W,,,,,,A
$GPRMC,1597.36745,A,3734.608696,N,12224.07184,W,,,,,,A
$GPRMC,1597.417448,A,3734.609424,N,12224.07215,W,,,,,,A
$GPRMC,1597.467485,A,3734.610152,N,12224.07245,W,,,,,,A
$GPRMC,1597.517476,A,3734.61088,N,12224.07276,W,,,,,,A
$GPRMC,1597.567452,A,3734.611608,N,12224.07307,W,,,,,,A
$GPRMC,1597.617477,A,3734.612336,N,12224.07338,W,,,,,,A
$GPRMC,1597.667454,A,3734.613066,N,12224.07368,W,,,,,,A
$GPRMC,1597.717494,A,3734.613794,N,12224.07399,W,,,,,,A
$GPRMC,1597.76745,A,3734.614523,N,12224.0743,W,,,,,,A
$GPRMC,1597.817445,A,3734.615253,N,12224.07461,W,,,,,,A
$GPRMC,1597.867459,A,3734.615982,N,12224.07491,W,,,,,,A
$GPRMC,1597.917485,A,3734.616711,N,12224.07522,W,,,,,,A
$GPRMC,1597.967447,A,3734.617441,N,12224.07553,W,,,,,,A
$GPRMC,1598.017443,A,3734.61817,N,12224.07584,W,,,,,,A
$GPRMC,1598.067447,A,3734.6189,N,12224.07614,W,,,,,,A
$GPRMC,1598.11744,A,3734.61963,N,12224.07645,W,,,,,,A
$GPRMC,1598.167446,A,3734.620361,N,12224.07676,W,,,,,,A
$GPRMC,1598.217453,A,3734.621091,N,12224.07706,W,,,,,,A
$GPRMC,1598.267462,A,3734.621821,N,12224.07737,W,,,,,,A
$GPRMC,1598.317449,A,3734.622551,N,12224.07768,W,,,,,,A
$GPRMC,1598.367443,A,3734.623282,N,12224.07799,W,,,,,,A
$GPRMC,1598.417438,A,3734.624012,N,12224.07829,W,,,,,,A
$GPRMC,1598.467439,A,3734.624743,N,12224.0786,W,,,,,,A
$GPRMC,1598.517437,A,3734.625474,N,12224.07891,W,,,,,,A
$GPRMC,1598.567434,A,3734.626205,N,12224.07922,W,,,,,,A
$GPRMC,1598.617434,A,3734.626937,N,12224.07952,W,,,,,,A
$GPRMC,1598.667437,A,3734.627668,N,12224.07983,W,,,,,,A
$GPRMC,1598.717432,A,3734.6284,N,12224.08014,W,,,,,,A
$GPRMC,1598.767442,A,3734.629131,N,12224.08045,W,,,,,,A
$GPRMC,1598.817434,A,3734.629862,N,12224.08076,W,,,,,,A
$GPRMC,1598.867431,A,3734.630594,N,12224.08107,W,,,,,,A
$GPRMC,1598.917428,A,3734.631327,N,12224.08137,W,,,,,,A
$GPRMC,1598.96745,A,3734.632059,N,12224.08168,W,,,,,,A
$GPRMC,1599.01744,A,3734.632791,N,12224.08199,W,,,,,,A
$GPRMC,1599.067444,A,3734.633523,N,12224.0823,W,,,,,,A
$GPRMC,1599.117426,A,3734.634255,N,12224.08261,W,,,,,,A
$GPRMC,1599.167437,A,3734.634987,N,12224.08292,W,,,,,,A
$GPRMC,1599.217433,A,3734.63572,N,12224.08322,W,,,,,,A
$GPRMC,1599.267447,A,3734.636452,N,12224.08353,W,,,,,,A
$GPRMC,1599.317433,A,3734.637184,N,12224.08384,W,,,,,,A
$GPRMC,1599.367423,A,3734.637917,N,12224.08415,W,,,,,,A
$GPRMC,1599.417423,A,3734.638651,N,12224.08446,W,,,,,,A
$GPRMC,1599.467434,A,3734.639384,N,12224.08477,W,,,,,,A
$GPRMC,1599.517434,A,3734.640117,N,12224.08508,W,,,,,,A
$GPRMC,1599.567422,A,3734.64085,N,12224.08539,W,,,,,,A
$GPRMC,1599.617428,A,3734.641584,N,12224.0857,W,,,,,,A
$GPRMC,1599.667428,A,3734.642317,N,12224.08601,W,,,,,,A
$GPRMC,1599.717417,A,3734.643051,N,12224.08631,W,,,,,,A
$GPRMC,1599.76742,A,3734.643785,N,12224.08662,W,,,,,,A
$GPRMC,1599.817425,A,3734.644519,N,12224.08693,W,,,,,,A
$GPRMC,1599.867417,A,3734.645254,N,12224.08724,W,,,,,,A
$GPRMC,1599.917426,A,3734.645988,N,12224.08755,W,,,,,,A
$GPRMC,1599.967417,A,3734.646723,N,12224.08786,W,,,,,,A
$GPRMC,1600.017422,A,3734.647458,N,12224.08817,W,,,,,,A
$GPRMC,1600.067419,A,3734.648192,N,12224.08848,W,,,,,,A
$GPRMC,1600.117422,A,3734.648927,N,12224.08879,W,,,,,,A
$GPRMC,1600.167414,A,3734.649662,N,12224.0891,W,,,,,,A
$GPRMC,1600.217406,A,3734.650398,N,12224.08941,W,,,,,,A
$GPRMC,1600.267415,A,3734.651133,N,12224.08972,W,,,,,,A
$GPRMC,1600.317408,A,3734.651869,N,12224.09003,W,,,,,,A
$GPRMC,1600.367412,A,3734.652604,N,12224.09034,W,,,,,,A
$GPRMC,1600.417407,A,3734.65334,N,12224.09064,W,,,,,,A
$GPRMC,1600.46741,A,3734.654076,N,12224.09095,W,,,,,,A
$GPRMC,1600.517415,A,3734.654812,N,12224.09126,W,,,,,,A
$GPRMC,1600.567428,A,3734.655547,N,12224.09157,W,,,,,,A
$GPRMC,1600.617405,A,3734.656283,N,12224.09189,W,,,,,,A
$GPRMC,1600.667433,A,3734.657019,N,12224.0922,W,,,,,,A
$GPRMC,1600.717403,A,3734.657755,N,12224.09251,W,,,,,,A
$GPRMC,1600.767411,A,3734.658491,N,12224.09282,W,,,,,,A
$GPRMC,1600.817401,A,3734.659227,N,12224.09313,W,,,,,,A
$GPRMC,1600.867408,A,3734.659964,N,12224.09344,W,,,,,,A
$GPRMC,1600.91745,A,3734.660699,N,12224.09375,W,,,,,,A
$GPRMC,1600.967399,A,3734.661436,N,12224.09406,W,,,,,,A
$GPRMC,1601.017415,A,3734.662171,N,12224.09438,W,,,,,,A
$GPRMC,1601.067402,A,3734.662907,N,12224.09469,W,,,,,,A
$GPRMC,1601.1174,A,3734.663643,N,12224.095,W,,,,,,A
$GPRMC,1601.167405,A,3734.664378,N,12224.09532,W,,,,,,A
$GPRMC,1601.217399,A,3734.665114,N,12224.09563,W,,,,,,A
$GPRMC,1601.267426,A,3734.665848,N,12224.09594,W,,,,,,A
$GPRMC,1601.317392,A,3734.666584,N,12224.09626,W,,,,,,A
$GPRMC,1601.367396,A,3734.667319,N,12224.09657,W,,,,,,A
$GPRMC,1601.41739,A,3734.668054,N,12224.09689,W,,,,,,A
$GPRMC,1601.467399,A,3734.668788,N,12224.0972,W,,,,,,A
$GPRMC,1601.517393,A,3734.669523,N,12224.09752,W,,,,,,A
$GPRMC,1601.567397,A,3734.670257,N,12224.09784,W,,,,,,A
$GPRMC,1601.617389,A,3734.670991,N,12224.09815,W,,,,,,A
$GPRMC,1601.667392,A,3734.671725,N,12224.09847,W,,,,,,A
$GPRMC,1601.71739,A,3734.672459,N,12224.09878,W,,,,,,A
$GPRMC,1601.767398,A,3734.673193,N,12224.0991,W,,,,,,A
$GPRMC,1601.817387,A,3734.673927,N,12224.09942,W,,,,,,A
$GPRMC,1601.867385,A,3734.67466,N,12224.09974,W,,,,,,A
$GPRMC,1601.917382,A,3734.675394,N,12224.10005,W,,,,,,A
$GPRMC,1601.967389,A,3734.676127,N,12224.10037,W,,,,,,A
$GPRMC,1602.017388,A,3734.67686,N,12224.10069,W,,,,,,A
$GPRMC,1602.067439,A,3734.677592,N,12224.10101,W,,,,,,A
$GPRMC,1602.117382,A,3734.678325,N,12224.10133,W,,,,,,A
$GPRMC,1602.167386,A,3734.679058,N,12224.10164,W,,,,,,A
$GPRMC,1602.217398,A,3734.679791,N,12224.10196,W,,,,,,A
$GPRMC,1602.26738,A,3734.680524,N,12224.10228,W,,,,,,A
$GPRMC,1602.317381,A,3734.681257,N,12224.1026,W,,,,,,A
$GPRMC,1602.367386,A,3734.681989,N,12224.10292,W,,,,,,A
$GPRMC,1602.41738,A,3734.682722,N,12224.10324,W,,,,,,A
$GPRMC,1602.467381,A,3734.683456,N,12224.10356,W,,,,,,A
$GPRMC,1602.517496,A,3734.684188,N,12224.10388,W,,,,,,A
$GPRMC,1602.567415,A,3734.68492,N,12224.1042,W,,,,,,A
$GPRMC,1602.617428,A,3734.685652,N,12224.10453,W,,,,,,A
$GPRMC,1602.667388,A,3734.686383,N,12224.10485,W,,,,,,A
$GPRMC,1602.717375,A,3734.687115,N,12224.10517,W,,,,,,A
$GPRMC,1602.76738,A,3734.687846,N,12224.1055,W,,,,,,A
$GPRMC,1602.817374,A,3734.688578,N,12224.10582,W,,,,,,A
$GPRMC,1602.867376,A,3734.68931,N,12224.10615,W,,,,,,A
$GPRMC,1602.917412,A,3734.690042,N,12224.10648,W,,,,,,A
$GPRMC,1602.967458,A,3734.690772,N,12224.1068,W,,,,,,A
$GPRMC,1603.017371,A,3734.691503,N,12224.10713,W,,,,,,A
$GPRMC,1603.067374,A,3734.692233,N,12224.10746,W,,,,,,A
$GPRMC,1603.117368,A,3734.692964,N,12224.10779,W,,,,,,A
$GPRMC,1603.167384,A,3734.693694,N,12224.10812,W,,,,,,A
$GPRMC,1603.217381,A,3734.694425,N,12224.10845,W,,,,,,A
$GPRMC,1603.267387,A,3734.695154,N,12224.10879,W,,,,,,A
$GPRMC,1603.317366,A,3734.695885,N,12224.10912,W,,,,,,A
$GPRMC,1603.367369,A,3734.696615,N,12224.10945,W,,,,,,A
$GPRMC,1603.41739,A,3734.697345,N,12224.10979,W,,,,,,A
$GPRMC,1603.467376,A,3734.698074,N,12224.11012,W,,,,,,A
$GPRMC,1603.517377,A,3734.698803,N,12224.11046,W,,,,,,A
$GPRMC,1603.567366,A,3734.699533,N,12224.1108,W,,,,,,A
$GPRMC,1603.61738,A,3734.700261,N,12224.11114,W,,,,,,A
$GPRMC,1603.667369,A,3734.70099,N,12224.11148,W,,,,,,A
$GPRMC,1603.717366,A,3734.701718,N,12224.11182,W,,,,,,A
$GPRMC,1603.767364,A,3734.702446,N,12224.11216,W,,,,,,A
$GPRMC,1603.817368,A,3734.703173,N,12224.11251,W,,,,,,A
$GPRMC,1603.867364,A,3734.703901,N,12224.11285,W,,,,,,A
$GPRMC,1603.917389,A,3734.704628,N,12224.1132,W,,,,,,A
$GPRMC,1603.967368,A,3734.705355,N,12224.11355,W,,,,,,A
$GPRMC,1604.017384,A,3734.706081,N,12224.1139,W,,,,,,A
$GPRMC,1604.067358,A,3734.706808,N,12224.11425,W,,,,,,A
$GPRMC,1604.117354,A,3734.707534,N,12224.1146,W,,,,,,A
$GPRMC,1604.167359,A,3734.70826,N,12224.11495,W,,,,,,A
$GPRMC,1604.217358,A,3734.708986,N,12224.1153,W,,,,,,A
$GPRMC,1604.267362,A,3734.709711,N,12224.11566,W,,,,,,A
$GPRMC,1604.317351,A,3734.710436,N,12224.11601,W,,,,,,A
$GPRMC,1604.367356,A,3734.711161,N,12224.11637,W,,,,,,A
$GPRMC,1604.417347,A,3734.711885,N,12224.11673,W,,,,,,A
$GPRMC,1604.46735,A,3734.71261,N,12224.11709,W,,,,,,A
$GPRMC,1604.517353,A,3734.713334,N,12224.11745,W,,,,,,A
$GPRMC,1604.567377,A,3734.714057,N,12224.11781,W,,,,,,A
$GPRMC,1604.617347,A,3734.714781,N,12224.11818,W,,,,,,A
$GPRMC,1604.667353,A,3734.715504,N,12224.11854,W,,,,,,A
$GPRMC,1604.717351,A,3734.716227,N,12224.1189,W,,,,,,A
$GPRMC,1604.767366,A,3734.71695,N,12224.11927,W,,,,,,A
$GPRMC,1604.81736,A,3734.717672,N,12224.11964,W,,,,,,A
$GPRMC,1604.867347,A,3734.718395,N,12224.12001,W,,,,,,A
$GPRMC,1604.917396,A,3734.719116,N,12224.12038,W,,,,,,A
$GPRMC,1604.967352,A,3734.719838,N,12224.12075,W,,,,,,A
$GPRMC,1605.017365,A,3734.720559,N,12224.12112,W,,,,,,A
$GPRMC,1605.067347,A,3734.72128,N,12224.12149,W,,,,,,A
$GPRMC,1605.117341,A,3734.722001,N,12224.12187,W,,,,,,A
$GPRMC,1605.16734,A,3734.722722,N,12224.12224,W,,,,,,A
$GPRMC,1605.217346,A,3734.723442,N,12224.12262,W,,,,,,A
$GPRMC,1605.267342,A,3734.724162,N,12224.123,W,,,,,,A
$GPRMC,1605.31736,A,3734.724881,N,12224.12338,W,,,,,,A
$GPRMC,1605.367344,A,3734.725601,N,12224.12376,W,,,,,,A
$GPRMC,1605.417358,A,3734.726319,N,12224.12414,W,,,,,,A
$GPRMC,1605.467345,A,3734.727038,N,12224.12452,W,,,,,,A
$GPRMC,1605.517332,A,3734.727756,N,12224.12491,W,,,,,,A
$GPRMC,1605.56734,A,3734.728474,N,12224.12529,W,,,,,,A
$GPRMC,1605.617335,A,3734.729192,N,12224.12568,W,,,,,,A
$GPRMC,1605.667359,A,3734.729908,N,12224.12607,W,,,,,,A
$GPRMC,1605.717334,A,3734.730625,N,12224.12646,W,,,,,,A
$GPRMC,1605.767335,A,3734.73134,N,12224.12685,W,,,,,,A
$GPRMC,1605.817335,A,3734.732056,N,12224.12724,W,,,,,,A
$GPRMC,1605.867336,A,3734.732771,N,12224.12763,W,,,,,,A
$GPRMC,1605.91733,A,3734.733485,N,12224.12803,W,,,,,,A
$GPRMC,1605.967327,A,3734.734199,N,12224.12842,W,,,,,,A
$GPRMC,1606.017332,A,3734.734913,N,12224.12882,W,,,,,,A
$GPRMC,1606.067349,A,3734.735627,N,12224.12922,W,,,,,,A
$GPRMC,1606.117348,A,3734.73634,N,12224.12961,W,,,,,,A
$GPRMC,1606.167328,A,3734.737053,N,12224.13001,W,,,,,,A
$GPRMC,1606.217335,A,3734.737765,N,12224.13041,W,,,,,,A
$GPRMC,1606.26733,A,3734.738477,N,12224.13081,W,,,,,,A
$GPRMC,1606.317333,A,3734.739189,N,12224.13122,W,,,,,,A
$GPRMC,1606.367328,A,3734.7399,N,12224.13162,W,,,,,,A
$GPRMC,1606.417331,A,3734.740611,N,12224.13202,W,,,,,,A
$GPRMC,1606.467332,A,3734.741322,N,12224.13242,W,,,,,,A
$GPRMC,1606.517322,A,3734.742033,N,12224.13283,W,,,,,,A
$GPRMC,1606.567326,A,3734.742742,N,12224.13324,W,,,,,,A
$GPRMC,1606.617316,A,3734.743452,N,12224.13364,W,,,,,,A
$GPRMC,1606.667322,A,3734.744161,N,12224.13405,W,,,,,,A
$GPRMC,1606.717317,A,3734.74487,N,12224.13446,W,,,,,,A
$GPRMC,1606.767325,A,3734.745579,N,12224.13487,W,,,,,,A
$GPRMC,1606.817323,A,3734.746287,N,12224.13528,W,,,,,,A
$GPRMC,1606.867345,A,3734.746995,N,12224.13569,W,,,,,,A
$GPRMC,1606.917316,A,3734.747703,N,12224.13611,W,,,,,,A
$GPRMC,1606.967321,A,3734.748411,N,12224.13652,W,,,,,,A
$GPRMC,1607.017317,A,3734.749118,N,12224.13694,W,,,,,,A
$GPRMC,1607.067317,A,3734.749825,N,12224.13735,W,,,,,,A
$GPRMC,1607.117317,A,3734.750532,N,12224.13777,W,,,,,,A
$GPRMC,1607.167314,A,3734.751238,N,12224.13819,W,,,,,,A
$GPRMC,1607.217313,A,3734.751944,N,12224.13861,W,,,,,,A
$GPRMC,1607.267355,A,3734.752648,N,12224.13903,W,,,,,,A
$GPRMC,1607.317363,A,3734.753352,N,12224.13945,W,,,,,,A
$GPRMC,1607.367312,A,3734.754056,N,12224.13988,W,,,,,,A
$GPRMC,1607.417306,A,3734.75476,N,12224.1403,W,,,,,,A
$GPRMC,1607.467349,A,3734.755463,N,12224.14073,W,,,,,,A
$GPRMC,1607.517342,A,3734.756165,N,12224.14116,W,,,,,,A
$GPRMC,1607.56733,A,3734.756867,N,12224.14159,W,,,,,,A
$GPRMC,1607.617305,A,3734.757568,N,12224.14202,W,,,,,,A
$GPRMC,1607.667326,A,3734.758268,N,12224.14245,W,,,,,,A
$GPRMC,1607.717304,A,3734.758969,N,12224.14289,W,,,,,,A
$GPRMC,1607.767307,A,3734.759668,N,12224.14332,W,,,,,,A
$GPRMC,1607.817304,A,3734.760367,N,12224.14376,W,,,,,,A
$GPRMC,1607.867306,A,3734.761066,N,12224.1442,W,,,,,,A
$GPRMC,1607.917301,A,3734.761763,N,12224.14464,W,,,,,,A
$GPRMC,1607.9673,A,3734.762461,N,12224.14508,W,,,,,,A
$GPRMC,1608.017301,A,3734.763157,N,12224.14552,W,,,,,,A
$GPRMC,1608.067303,A,3734.763854,N,12224.14596,W,,,,,,A
$GPRMC,1608.117301,A,3734.764549,N,12224.14641,W,,,,,,A
$GPRMC,1608.1673,A,3734.765244,N,12224.14686,W,,,,,,A
$GPRMC,1608.217297,A,3734.765939,N,12224.1473,W,,,,,,A
$GPRMC,1608.267302,A,3734.766633,N,12224.14775,W,,,,,,A
$GPRMC,1608.317345,A,3734.767325,N,12224.1482,W,,,,,,A
$GPRMC,1608.367307,A,3734.768017,N,12224.14866,W,,,,,,A
$GPRMC,1608.4173,A,3734.768709,N,12224.14911,W,,,,,,A
$GPRMC,1608.467294,A,3734.7694,N,12224.14957,W,,,,,,A
$GPRMC,1608.517289,A,3734.770091,N,12224.15002,W,,,,,,A
$GPRMC,1608.567299,A,3734.770781,N,12224.15048,W,,,,,,A
$GPRMC,1608.617311,A,3734.771471,N,12224.15094,W,,,,,,A
$GPRMC,1608.667328,A,3734.77216,N,12224.1514,W,,,,,,A
$GPRMC,1608.717299,A,3734.772848,N,12224.15187,W,,,,,,A
$GPRMC,1608.767293,A,3734.773535,N,12224.15233,W,,,,,,A
$GPRMC,1608.817291,A,3734.774223,N,12224.1528,W,,,,,,A
$GPRMC,1608.867313,A,3734.77491,N,12224.15327,W,,,,,,A
$GPRMC,1608.917343,A,3734.775595,N,12224.15373,W,,,,,,A
$GPRMC,1608.967296,A,3734.77628,N,12224.1542,W,,,,,,A
$GPRMC,1609.0173,A,3734.776965,N,12224.15468,W,,,,,,A
$GPRMC,1609.067291,A,3734.777649,N,12224.15515,W,,,,,,A
$GPRMC,1609.117316,A,3734.778333,N,12224.15562,W,,,,,,A
$GPRMC,1609.167308,A,3734.779016,N,12224.1561,W,,,,,,A
$GPRMC,1609.217307,A,3734.779699,N,12224.15657,W,,,,,,A
$GPRMC,1609.267285,A,3734.780382,N,12224.15705,W,,,,,,A
$GPRMC,1609.317297,A,3734.781064,N,12224.15753,W,,,,,,A
$GPRMC,1609.367288,A,3734.781746,N,12224.15801,W,,,,,,A
$GPRMC,1609.417309,A,3734.782427,N,12224.15849,W,,,,,,A
$GPRMC,1609.467279,A,3734.783108,N,12224.15897,W,,,,,,A
$GPRMC,1609.517276,A,3734.783789,N,12224.15945,W,,,,,,A
$GPRMC,1609.567282,A,3734.784469,N,12224.15994,W,,,,,,A
$GPRMC,1609.617276,A,3734.785149,N,12224.16042,W,,,,,,A
$GPRMC,1609.667279,A,3734.785828,N,12224.16091,W,,,,,,A
$GPRMC,1609.717292,A,3734.786507,N,12224.16139,W,,,,,,A
$GPRMC,1609.767281,A,3734.787185,N,12224.16188,W,,,,,,A
$GPRMC,1609.817275,A,3734.787863,N,12224.16237,W,,,,,,A
$GPRMC,1609.867275,A,3734.788541,N,12224.16286,W,,,,,,A
$GPRMC,1609.917279,A,3734.789219,N,12224.16336,W,,,,,,A
$GPRMC,1609.967276,A,3734.789897,N,12224.16385,W,,,,,,A
$GPRMC,1610.017271,A,3734.790574,N,12224.16434,W,,,,,,A
$GPRMC,1610.067273,A,3734.791251,N,12224.16484,W,,,,,,A
$GPRMC,1610.117281,A,3734.791927,N,12224.16533,W,,,,,,A
$GPRMC,1610.167273,A,3734.792603,N,12224.16583,W,,,,,,A
$GPRMC,1610.217272,A,3734.793279,N,12224.16633,W,,,,,,A
$GPRMC,1610.267287,A,3734.793954,N,12224.16682,W,,,,,,A
$GPRMC,1610.317267,A,3734.794629,N,12224.16732,W,,,,,,A
$GPRMC,1610.36728,A,3734.795303,N,12224.16782,W,,,,,,A
$GPRMC,1610.417265,A,3734.795978,N,12224.16832,W,,,,,,A
$GPRMC,1610.467284,A,3734.796652,N,12224.16883,W,,,,,,A
$GPRMC,1610.517285,A,3734.797326,N,12224.16933,W,,,,,,A
$GPRMC,1610.567296,A,3734.797999,N,12224.16983,W,,,,,,A
$GPRMC,1610.617273,A,3734.798672,N,12224.17034,W,,,,,,A
$GPRMC,1610.667265,A,3734.799345,N,12224.17084,W,,,,,,A
$GPRMC,1610.717261,A,3734.800017,N,12224.17135,W,,,,,,A
$GPRMC,1610.767265,A,3734.80069,N,12224.17186,W,,,,,,A
$GPRMC,1610.817261,A,3734.801362,N,12224.17236,W,,,,,,A
$GPRMC,1610.867277,A,3734.802033,N,12224.17287,W,,,,,,A
$GPRMC,1610.917263,A,3734.802705,N,12224.17338,W,,,,,,A
$GPRMC,1610.967265,A,3734.803377,N,12224.17389,W,,,,,,A
$GPRMC,1611.017273,A,3734.804048,N,12224.1744,W,,,,,,A
$GPRMC,1611.067273,A,3734.80472,N,12224.17491,W,,,,,,A
$GPRMC,1611.117258,A,3734.805392,N,12224.17542,W,,,,,,A
$GPRMC,1611.167261,A,3734.806063,N,12224.17593,W,,,,,,A
$GPRMC,1611.217256,A,3734.806735,N,12224.17644,W,,,,,,A
$GPRMC,1611.267272,A,3734.807406,N,12224.17695,W,,,,,,A
$GPRMC,1611.317254,A,3734.808077,N,12224.17746,W,,,,,,A
$GPRMC,1611.367257,A,3734.808749,N,12224.17798,W,,,,,,A
$GPRMC,1611.417252,A,3734.80942,N,12224.17849,W,,,,,,A
$GPRMC,1611.467264,A,3734.810092,N,12224.179,W,,,,,,A
$GPRMC,1611.51726,A,3734.810764,N,12224.17951,W,,,,,,A
$GPRMC,1611.567266,A,3734.811436,N,12224.18002,W,,,,,,A
$GPRMC,1611.61726,A,3734.812108,N,12224.18054,W,,,,,,A
$GPRMC,1611.667254,A,3734.812781,N,12224.18105,W,,,,,,A
$GPRMC,1611.717247,A,3734.813453,N,12224.18156,W,,,,,,A
$GPRMC,1611.767257,A,3734.814125,N,12224.18207,W,,,,,,A
$GPRMC,1611.817249,A,3734.814799,N,12224.18259,W,,,,,,A
$GPRMC,1611.867338,A,3734.81547,N,12224.1831,W,,,,,,A
$GPRMC,1611.917245,A,3734.816143,N,12224.18361,W,,,,,,A
$GPRMC,1611.967247,A,3734.816816,N,12224.18412,W,,,,,,A
$GPRMC,1612.017241,A,3734.817489,N,12224.18464,W,,,,,,A
$GPRMC,1612.067259,A,3734.818163,N,12224.18515,W,,,,,,A
$GPRMC,1612.117261,A,3734.818836,N,12224.18566,W,,,,,,A
$GPRMC,1612.167263,A,3734.819509,N,12224.18617,W,,,,,,A
$GPRMC,1612.217242,A,3734.820182,N,12224.18668,W,,,,,,A
$GPRMC,1612.267244,A,3734.820856,N,12224.1872,W,,,,,,A
$GPRMC,1612.317255,A,3734.82153,N,12224.18771,W,,,,,,A
$GPRMC,1612.367243,A,3734.822204,N,12224.18822,W,,,,,,A
$GPRMC,1612.417237,A,3734.822878,N,12224.18873,W,,,,,,A
$GPRMC,1612.467256,A,3734.823553,N,12224.18924,W,,,,,,A
$GPRMC,1612.517295,A,3734.824226,N,12224.18976,W,,,,,,A
$GPRMC,1612.567241,A,3734.824899,N,12224.19027,W,,,,,,A
$GPRMC,1612.617247,A,3734.825573,N,12224.19078,W,,,,,,A
$GPRMC,1612.667236,A,3734.826247,N,12224.19129,W,,,,,,A
$GPRMC,1612.717235,A,3734.826921,N,12224.1918,W,,,,,,A
$GPRMC,1612.767242,A,3734.827595,N,12224.19232,W,,,,,,A
$GPRMC,1612.817243,A,3734.828269,N,12224.19283,W,,,,,,A
$GPRMC,1612.867229,A,3734.828943,N,12224.19334,W,,,,,,A
$GPRMC,1612.917251,A,3734.829617,N,12224.19385,W,,,,,,A
$GPRMC,1612.967239,A,3734.830291,N,12224.19436,W,,,,,,A
$GPRMC,1613.017226,A,3734.830966,N,12224.19487,W,,,,,,A
$GPRMC,1613.067232,A,3734.83164,N,12224.19538,W,,,,,,A
$GPRMC,1613.117228,A,3734.832314,N,12224.19589,W,,,,,,A
$GPRMC,1613.16723,A,3734.832988,N,12224.1964,W,,,,,,A
$GPRMC,1613.217228,A,3734.833662,N,12224.19691,W,,,,,,A
$GPRMC,1613.267249,A,3734.834335,N,12224.19742,W,,,,,,A
$GPRMC,1613.31723,A,3734.835008,N,12224.19793,W,,,,,,A
$GPRMC,1613.36723,A,3734.835681,N,12224.19844,W,,,,,,A
$GPRMC,1613.41722,A,3734.836355,N,12224.19895,W,,,,,,A
$GPRMC,1613.467227,A,3734.837028,N,12224.19946,W,,,,,,A
$GPRMC,1613.517256,A,3734.837701,N,12224.19997,W,,,,,,A
$GPRMC,1613.567228,A,3734.838374,N,12224.20047,W,,,,,,A
$GPRMC,1613.617227,A,3734.839048,N,12224.20098,W,,,,,,A
$GPRMC,1613.667224,A,3734.83972,N,12224.20149,W,,,,,,A
$GPRMC,1613.71722,A,3734.840393,N,12224.202,W,,,,,,A
$GPRMC,1613.767254,A,3734.841064,N,12224.20251,W,,,,,,A
$GPRMC,1613.817218,A,3734.841735,N,12224.20302,W,,,,,,A
$GPRMC,1613.867222,A,3734.842405,N,12224.20353,W,,,,,,A
$GPRMC,1613.917216,A,3734.843076,N,12224.20403,W,,,,,,A
$GPRMC,1613.967211,A,3734.843747,N,12224.20454,W,,,,,,A
$GPRMC,1614.017216,A,3734.844418,N,12224.20505,W,,,,,,A
$GPRMC,1614.067212,A,3734.845088,N,12224.20556,W,,,,,,A
$GPRMC,1614.117223,A,3734.845758,N,12224.20607,W,,,,,,A
$GPRMC,1614.167217,A,3734.846427,N,12224.20657,W,,,,,,A
$GPRMC,1614.217221,A,3734.847097,N,12224.20708,W,,,,,,A
$GPRMC,1614.26722,A,3734.847766,N,12224.20759,W,,,,,,A
$GPRMC,1614.317238,A,3734.848435,N,12224.2081,W,,,,,,A
$GPRMC,1614.367211,A,3734.849105,N,12224.2086,W,,,,,,A
$GPRMC,1614.41721,A,3734.849774,N,12224.20911,W,,,,,,A
$GPRMC,1614.467211,A,3734.850442,N,12224.20962,W,,,,,,A
$GPRMC,1614.517215,A,3734.85111,N,12224.21013,W,,,,,,A
$GPRMC,1614.567214,A,3734.851778,N,12224.21064,W,,,,,,A
$GPRMC,1614.61721,A,3734.852445,N,12224.21114,W,,,,,,A
$GPRMC,1614.667214,A,3734.853112,N,12224.21165,W,,,,,,A
$GPRMC,1614.717245,A,3734.853779,N,12224.21216,W,,,,,,A
$GPRMC,1614.767211,A,3734.854446,N,12224.21267,W,,,,,,A
$GPRMC,1614.817235,A,3734.855113,N,12224.21318,W,,,,,,A
$GPRMC,1614.86721,A,3734.85578,N,12224.21369,W,,,,,,A
$GPRMC,1614.917205,A,3734.856446,N,12224.21419,W,,,,,,A
$GPRMC,1614.967215,A,3734.857112,N,12224.2147,W,,,,,,A
$GPRMC,1615.017201,A,3734.857777,N,12224.21521,W,,,,,,A
$GPRMC,1615.067202,A,3734.858442,N,12224.21572,W,,,,,,A
$GPRMC,1615.117201,A,3734.859107,N,12224.21622,W,,,,,,A
$GPRMC,1615.167202,A,3734.859773,N,12224.21673,W,,,,,,A
$GPRMC,1615.217204,A,3734.860438,N,12224.21724,W,,,,,,A
$GPRMC,1615.267214,A,3734.861103,N,12224.21775,W,,,,,,A
$GPRMC,1615.317202,A,3734.861768,N,12224.21825,W,,,,,,A
$GPRMC,1615.3672,A,3734.862434,N,12224.21876,W,,,,,,A
$GPRMC,1615.417228,A,3734.863099,N,12224.21927,W,,,,,,A
$GPRMC,1615.4672,A,3734.863764,N,12224.21978,W,,,,,,A
$GPRMC,1615.517195,A,3734.864427,N,12224.22028,W,,,,,,A
$GPRMC,1615.567198,A,3734.865089,N,12224.22079,W,,,,,,A
$GPRMC,1615.61723,A,3734.86575,N,12224.2213,W,,,,,,A
$GPRMC,1615.667199,A,3734.866411,N,12224.2218,W,,,,,,A
$GPRMC,1615.717193,A,3734.867072,N,12224.22231,W,,,,,,A
$GPRMC,1615.76721,A,3734.867733,N,12224.22282,W,,,,,,A
$GPRMC,1615.817194,A,3734.868395,N,12224.22333,W,,,,,,A
$GPRMC,1615.867199,A,3734.869057,N,12224.22384,W,,,,,,A
$GPRMC,1615.917187,A,3734.869719,N,12224.22434,W,,,,,,A
$GPRMC,1615.967192,A,3734.870381,N,12224.22485,W,,,,,,A
$GPRMC,1616.017209,A,3734.871043,N,12224.22536,W,,,,,,A
$GPRMC,1616.067206,A,3734.871706,N,12224.22586,W,,,,,,A
$GPRMC,1616.117198,A,3734.872368,N,12224.22637,W,,,,,,A
$GPRMC,1616.16719,A,3734.873029,N,12224.22688,W,,,,,,A
$GPRMC,1616.217185,A,3734.873691,N,12224.22738,W,,,,,,A
$GPRMC,1616.267193,A,3734.874353,N,12224.22789,W,,,,,,A
$GPRMC,1616.3172,A,3734.875014,N,12224.2284,W,,,,,,A
$GPRMC,1616.367185,A,3734.875676,N,12224.2289,W,,,,,,A
$GPRMC,1616.417183,A,3734.876337,N,12224.22941,W,,,,,,A
$GPRMC,1616.467183,A,3734.877,N,12224.22992,W,,,,,,A
$GPRMC,1616.51718,A,3734.877662,N,12224.23042,W,,,,,,A
$GPRMC,1616.567183,A,3734.878325,N,12224.23093,W,,,,,,A
$GPRMC,1616.617183,A,3734.878988,N,12224.23144,W,,,,,,A
$GPRMC,1616.66718,A,3734.879651,N,12224.23194,W,,,,,,A
$GPRMC,1616.717178,A,3734.880314,N,12224.23245,W,,,,,,A
$GPRMC,1616.76718,A,3734.880977,N,12224.23296,W,,,,,,A
$GPRMC,1616.817176,A,3734.88164,N,12224.23346,W,,,,,,A
$GPRMC,1616.867174,A,3734.882303,N,12224.23397,W,,,,,,A
$GPRMC,1616.917173,A,3734.882967,N,12224.23448,W,,,,,,A
$GPRMC,1616.967178,A,3734.88363,N,12224.23498,W,,,,,,A
$GPRMC,1617.017185,A,3734.884294,N,12224.23549,W,,,,,,A
$GPRMC,1617.067178,A,3734.884959,N,12224.23599,W,,,,,,A
$GPRMC,1617.117204,A,3734.885622,N,12224.2365,W,,,,,,A
$GPRMC,1617.167175,A,3734.886286,N,12224.23701,W,,,,,,A
$GPRMC,1617.217176,A,3734.88695,N,12224.23751,W,,,,,,A
$GPRMC,1617.267173,A,3734.887614,N,12224.23802,W,,,,,,A
$GPRMC,1617.317169,A,3734.888278,N,12224.23852,W,,,,,,A
$GPRMC,1617.367171,A,3734.888943,N,12224.23903,W,,,,,,A
$GPRMC,1617.417207,A,3734.889606,N,12224.23953,W,,,,,,A
$GPRMC,1617.46717,A,3734.89027,N,12224.24004,W,,,,,,A
$GPRMC,1617.517165,A,3734.890935,N,12224.24054,W,,,,,,A
$GPRMC,1617.567181,A,3734.891599,N,12224.24105,W,,,,,,A
$GPRMC,1617.61717,A,3734.892263,N,12224.24155,W,,,,,,A
$GPRMC,1617.667167,A,3734.892927,N,12224.24206,W,,,,,,A
$GPRMC,1617.717167,A,3734.893591,N,12224.24256,W,,,,,,A
$GPRMC,1617.767163,A,3734.894255,N,12224.24307,W,,,,,,A
$GPRMC,1617.817165,A,3734.894919,N,12224.24357,W,,,,,,A
$GPRMC,1617.867167,A,3734.895583,N,12224.24408,W,,,,,,A
$GPRMC,1617.917156,A,3734.896247,N,12224.24458,W,,,,,,A
$GPRMC,1617.967166,A,3734.896911,N,12224.24509,W,,,,,,A
$GPRMC,1618.017162,A,3734.897575,N,12224.24559,W,,,,,,A
$GPRMC,1618.067164,A,3734.898239,N,12224.2461,W,,,,,,A
$GPRMC,1618.117158,A,3734.898903,N,12224.24661,W,,,,,,A
$GPRMC,1618.167162,A,3734.899567,N,12224.24711,W,,,,,,A
$GPRMC,1618.217169,A,3734.900231,N,12224.24762,W,,,,,,A
$GPRMC,1618.267172,A,3734.900895,N,12224.24812,W,,,,,,A
$GPRMC,1618.317155,A,3734.901559,N,12224.24863,W,,,,,,A
$GPRMC,1618.367161,A,3734.902223,N,12224.24914,W,,,,,,A
$GPRMC,1618.417153,A,3734.902887,N,12224.24964,W,,,,,,A
$GPRMC,1618.467158,A,3734.903552,N,12224.25015,W,,,,,,A
$GPRMC,1618.517157,A,3734.904216,N,12224.25065,W,,,,,,A
$GPRMC,1618.567159,A,3734.904881,N,12224.25116,W,,,,,,A
$GPRMC,1618.617159,A,3734.905545,N,12224.25167,W,,,,,,A
$GPRMC,1618.667172,A,3734.90621,N,12224.25217,W,,,,,,A
$GPRMC,1618.717181,A,3734.906874,N,12224.25268,W,,,,,,A
$GPRMC,1618.767147,A,3734.907539,N,12224.25319,W,,,,,,A
$GPRMC,1618.817186,A,3734.908203,N,12224.25369,W,,,,,,A
$GPRMC,1618.867152,A,3734.908867,N,12224.2542,W,,,,,,A
$GPRMC,1618.917147,A,3734.909531,N,12224.25471,W,,,,,,A
$GPRMC,1618.967147,A,3734.910195,N,12224.25521,W,,,,,,A
$GPRMC,1619.017145,A,3734.910859,N,12224.25572,W,,,,,,A
$GPRMC,1619.067146,A,3734.911523,N,12224.25623,W,,,,,,A
$GPRMC,1619.117143,A,3734.912187,N,12224.25674,W,,,,,,A
$GPRMC,1619.167145,A,3734.912851,N,12224.25725,W,,,,,,A
$GPRMC,1619.217144,A,3734.913515,N,12224.25775,W,,,,,,A
$GPRMC,1619.267144,A,3734.914179,N,12224.25826,W,,,,,,A
$GPRMC,1619.317141,A,3734.914843,N,12224.25877,W,,,,,,A
$GPRMC,1619.367142,A,3734.915507,N,12224.25928,W,,,,,,A
$GPRMC,1619.417139,A,3734.916171,N,12224.25979,W,,,,,,A
$GPRMC,1619.467144,A,3734.916835,N,12224.2603,W,,,,,,A
$GPRMC,1619.51714,A,3734.917499,N,12224.26081,W,,,,,,A
$GPRMC,1619.567141,A,3734.918164,N,12224.26132,W,,,,,,A
$GPRMC,1619.61714,A,3734.918828,N,12224.26183,W,,,,,,A
$GPRMC,1619.667137,A,3734.919493,N,12224.26233,W,,,,,,A
$GPRMC,1619.717137,A,3734.920157,N,12224.26284,W,,,,,,A
$GPRMC,1619.767139,A,3734.920821,N,12224.26335,W,,,,,,A
$GPRMC,1619.817134,A,3734.921486,N,12224.26386,W,,,,,,A
$GPRMC,1619.867138,A,3734.92215,N,12224.26437,W,,,,,,A
$GPRMC,1619.91716,A,3734.922814,N,12224.26488,W,,,,,,A
$GPRMC,1619.967134,A,3734.923479,N,12224.26539,W,,,,,,A
$GPRMC,1620.017138,A,3734.924143,N,12224.2659,W,,,,,,A
$GPRMC,1620.067148,A,3734.924807,N,12224.26641,W,,,,,,A
$GPRMC,1620.117127,A,3734.925472,N,12224.26691,W,,,,,,A
$GPRMC,1620.167134,A,3734.926136,N,12224.26742,W,,,,,,A
$GPRMC,1620.21713,A,3734.9268,N,12224.26793,W,,,,,,A
$GPRMC,1620.26713,A,3734.927464,N,12224.26844,W,,,,,,A
$GPRMC,1620.317131,A,3734.928128,N,12224.26895,W,,,,,,A
$GPRMC,1620.367128,A,3734.928793,N,12224.26945,W,,,,,,A
$GPRMC,1620.41713,A,3734.929457,N,12224.26996,W,,,,,,A
$GPRMC,1620.467129,A,3734.930121,N,12224.27047,W,,,,,,A
$GPRMC,1620.517124,A,3734.930786,N,12224.27098,W,,,,,,A
$GPRMC,1620.567139,A,3734.931451,N,12224.27149,W,,,,,,A
$GPRMC,1620.617144,A,3734.932115,N,12224.27199,W,,,,,,A
$GPRMC,1620.667122,A,3734.932779,N,12224.2725,W,,,,,,A
$GPRMC,1620.717137,A,3734.933444,N,12224.27301,W,,,,,,A
$GPRMC,1620.767124,A,3734.934108,N,12224.27352,W,,,,,,A
$GPRMC,1620.817122,A,3734.934773,N,12224.27403,W,,,,,,A
$GPRMC,1620.867126,A,3734.935437,N,12224.27453,W,,,,,,A
$GPRMC,1620.917118,A,3734.936102,N,12224.27504,W,,,,,,A
$GPRMC,1620.967127,A,3734.936767,N,12224.27555,W,,,,,,A
$GPRMC,1621.017119,A,3734.937432,N,12224.27606,W,,,,,,A
$GPRMC,1621.067125,A,3734.938096,N,12224.27657,W,,,,,,A
$GPRMC,1621.117117,A,3734.938762,N,12224.27707,W,,,,,,A
$GPRMC,1621.167134,A,3734.939427,N,12224.27758,W,,,,,,A
$GPRMC,1621.217119,A,3734.940092,N,12224.27809,W,,,,,,A
$GPRMC,1621.267117,A,3734.940756,N,12224.2786,W,,,,,,A
$GPRMC,1621.317113,A,3734.941421,N,12224.27911,W,,,,,,A
$GPRMC,1621.367116,A,3734.942086,N,12224.27961,W,,,,,,A
$GPRMC,1621.417115,A,3734.942751,N,12224.28012,W,,,,,,A
$GPRMC,1621.467124,A,3734.943415,N,12224.28063,W,,,,,,A
$GPRMC,1621.517111,A,3734.94408,N,12224.28114,W,,,,,,A
$GPRMC,1621.567106,A,3734.944745,N,12224.28165,W,,,,,,A
$GPRMC,1621.617118,A,3734.94541,N,12224.28216,W,,,,,,A
$GPRMC,1621.667118,A,3734.946075,N,12224.28267,W,,,,,,A
$GPRMC,1621.71712,A,3734.94674,N,12224.28318,W,,,,,,A
$GPRMC,1621.767108,A,3734.947405,N,12224.28369,W,,,,,,A
$GPRMC,1621.817106,A,3734.94807,N,12224.2842,W,,,,,,A
$GPRMC,1621.867117,A,3734.948735,N,12224.28471,W,,,,,,A
$GPRMC,1621.917142,A,3734.949399,N,12224.28522,W,,,,,,A
$GPRMC,1621.967112,A,3734.950064,N,12224.28573,W,,,,,,A
$GPRMC,1622.017124,A,3734.950728,N,12224.28624,W,,,,,,A
$GPRMC,1622.067105,A,3734.951393,N,12224.28676,W,,,,,,A
$GPRMC,1622.117099,A,3734.952057,N,12224.28727,W,,,,,,A
$GPRMC,1622.167098,A,3734.952722,N,12224.28778,W,,,,,,A
$GPRMC,1622.217109,A,3734.953387,N,12224.28829,W,,,,,,A
$GPRMC,1622.267101,A,3734.954051,N,12224.2888,W,,,,,,A
$GPRMC,1622.317096,A,3734.954715,N,12224.28932,W,,,,,,A
$GPRMC,1622.3671,A,3734.955379,N,12224.28983,W,,,,,,A
$GPRMC,1622.417101,A,3734.956043,N,12224.29034,W,,,,,,A
$GPRMC,1622.467098,A,3734.956707,N,12224.29086,W,,,,,,A
$GPRMC,1622.517103,A,3734.957371,N,12224.29137,W,,,,,,A
$GPRMC,1622.567098,A,3734.958036,N,12224.29188,W,,,,,,A
$GPRMC,1622.617096,A,3734.9587,N,12224.2924,W,,,,,,A
$GPRMC,1622.667096,A,3734.959363,N,12224.29291,W,,,,,,A
$GPRMC,1622.717101,A,3734.960027,N,12224.29343,W,,,,,,A
$GPRMC,1622.767095,A,3734.96069,N,12224.29394,W,,,,,,A
$GPRMC,1622.817092,A,3734.961353,N,12224.29446,W,,,,,,A
$GPRMC,1622.867094,A,3734.962015,N,12224.29497,W,,,,,,A
$GPRMC,1622.917098,A,3734.962678,N,12224.29549,W,,,,,,A
$GPRMC,1622.967092,A,3734.963341,N,12224.29601,W,,,,,,A
$GPRMC,1623.017095,A,3734.964003,N,12224.29653,W,,,,,,A
$GPRMC,1623.06709,A,3734.964664,N,12224.29705,W,,,,,,A
$GPRMC,1623.117087,A,3734.965325,N,12224.29757,W,,,,,,A
$GPRMC,1623.167087,A,3734.965986,N,12224.29809,W,,,,,,A
$GPRMC,1623.217087,A,3734.966647,N,12224.29861,W,,,,,,A
$GPRMC,1623.267088,A,3734.967308,N,12224.29913,W,,,,,,A
$GPRMC,1623.317089,A,3734.967968,N,12224.29965,W,,,,,,A
$GPRMC,1623.367086,A,3734.968629,N,12224.30017,W,,,,,,A
$GPRMC,1623.417086,A,3734.969289,N,12224.30069,W,,,,,,A
$GPRMC,1623.467085,A,3734.969948,N,12224.30122,W,,,,,,A
$GPRMC,1623.517084,A,3734.970608,N,12224.30174,W,,,,,,A
$GPRMC,1623.5671,A,3734.971267,N,12224.30227,W,,,,,,A
$GPRMC,1623.617083,A,3734.971925,N,12224.30279,W,,,,,,A
$GPRMC,1623.667082,A,3734.972584,N,12224.30331,W,,,,,,A
$GPRMC,1623.717084,A,3734.973241,N,12224.30384,W,,,,,,A
$GPRMC,1623.76708,A,3734.973899,N,12224.30437,W,,,,,,A
$GPRMC,1623.817079,A,3734.974556,N,12224.30489,W,,,,,,A
$GPRMC,1623.867079,A,3734.975213,N,12224.30542,W,,,,,,A
$GPRMC,1623.917083,A,3734.97587,N,12224.30595,W,,,,,,A
$GPRMC,1623.967079,A,3734.976526,N,12224.30648,W,,,,,,A
$GPRMC,1624.017081,A,3734.977181,N,12224.30701,W,,,,,,A
$GPRMC,1624.067086,A,3734.977837,N,12224.30754,W,,,,,,A
$GPRMC,1624.117102,A,3734.978492,N,12224.30807,W,,,,,,A
$GPRMC,1624.167075,A,3734.979146,N,12224.30861,W,,,,,,A
$GPRMC,1624.21707,A,3734.979801,N,12224.30914,W,,,,,,A
$GPRMC,1624.267071,A,3734.980456,N,12224.30967,W,,,,,,A
$GPRMC,1624.317081,A,3734.98111,N,12224.31021,W,,,,,,A
$GPRMC,1624.367072,A,3734.981764,N,12224.31074,W,,,,,,A
$GPRMC,1624.417098,A,3734.982417,N,12224.31127,W,,,,,,A
$GPRMC,1624.467071,A,3734.983071,N,12224.31181,W,,,,,,A
$GPRMC,1624.517068,A,3734.983724,N,12224.31235,W,,,,,,A
$GPRMC,1624.567069,A,3734.984376,N,12224.31288,W,,,,,,A
$GPRMC,1624.617074,A,3734.985029,N,12224.31342,W,,,,,,A
$GPRMC,1624.667073,A,3734.98568,N,12224.31396,W,,,,,,A
$GPRMC,1624.717069,A,3734.986332,N,12224.3145,W,,,,,,A
$GPRMC,1624.767071,A,3734.986983,N,12224.31504,W,,,,,,A
$GPRMC,1624.817064,A,3734.987634,N,12224.31558,W,,,,,,A
$GPRMC,1624.867085,A,3734.988284,N,12224.31612,W,,,,,,A
$GPRMC,1624.917076,A,3734.988935,N,12224.31666,W,,,,,,A
$GPRMC,1624.967089,A,3734.989585,N,12224.3172,W,,,,,,A
$GPRMC,1625.01706,A,3734.990235,N,12224.31775,W,,,,,,A
$GPRMC,1625.067089,A,3734.990884,N,12224.31829,W,,,,,,A
$GPRMC,1625.117063,A,3734.991533,N,12224.31883,W,,,,,,A
$GPRMC,1625.167069,A,3734.992182,N,12224.31938,W,,,,,,A
$GPRMC,1625.217062,A,3734.99283,N,12224.31992,W,,,,,,A
$GPRMC,1625.267069,A,3734.993478,N,12224.32047,W,,,,,,A
$GPRMC,1625.317069,A,3734.994125,N,12224.32102,W,,,,,,A
$GPRMC,1625.367057,A,3734.994772,N,12224.32157,W,,,,,,A
$GPRMC,1625.417088,A,3734.995418,N,12224.32212,W,,,,,,A
$GPRMC,1625.467072,A,3734.996063,N,12224.32267,W,,,,,,A
$GPRMC,1625.51705,A,3734.996709,N,12224.32322,W,,,,,,A
$GPRMC,1625.567055,A,3734.997355,N,12224.32377,W,,,,,,A
$GPRMC,1625.617052,A,3734.998,N,12224.32432,W,,,,,,A
$GPRMC,1625.667055,A,3734.998645,N,12224.32488,W,,,,,,A
$GPRMC,1625.717051,A,3734.999289,N,12224.32543,W,,,,,,A
$GPRMC,1625.767059,A,3734.999933,N,12224.32599,W,,,,,,A
$GPRMC,1625.817054,A,3735.000577,N,12224.32654,W,,,,,,A
$GPRMC,1625.867069,A,3735.00122,N,12224.3271,W,,,,,,A
$GPRMC,1625.917061,A,3735.001862,N,12224.32766,W,,,,,,A
$GPRMC,1625.967062,A,3735.002505,N,12224.32822,W,,,,,,A
$GPRMC,1626.017052,A,3735.003147,N,12224.32878,W,,,,,,A
$GPRMC,1626.067076,A,3735.003789,N,12224.32934,W,,,,,,A
$GPRMC,1626.11705,A,3735.00443,N,12224.3299,W,,,,,,A
$GPRMC,1626.167053,A,3735.005071,N,12224.33046,W,,,,,,A
$GPRMC,1626.217051,A,3735.005711,N,12224.33102,W,,,,,,A
$GPRMC,1626.267074,A,3735.006351,N,12224.33159,W,,,,,,A
$GPRMC,1626.317045,A,3735.006991,N,12224.33215,W,,,,,,A
$GPRMC,1626.367052,A,3735.00763,N,12224.33271,W,,,,,,A
$GPRMC,1626.417052,A,3735.008269,N,12224.33328,W,,,,,,A
$GPRMC,1626.467057,A,3735.008908,N,12224.33385,W,,,,,,A
$GPRMC,1626.517068,A,3735.009546,N,12224.33441,W,,,,,,A
$GPRMC,1626.567061,A,3735.010185,N,12224.33498,W,,,,,,A
$GPRMC,1626.617058,A,3735.010822,N,12224.33555,W,,,,,,A
$GPRMC,1626.667061,A,3735.01146,N,12224.33611,W,,,,,,A
$GPRMC,1626.717051,A,3735.012097,N,12224.33668,W,,,,,,A
$GPRMC,1626.767059,A,3735.012734,N,12224.33725,W,,,,,,A
$GPRMC,1626.81711,A,3735.013369,N,12224.33782,W,,,,,,A
$GPRMC,1626.867055,A,3735.014005,N,12224.33839,W,,,,,,A
$GPRMC,1626.917047,A,3735.01464,N,12224.33897,W,,,,,,A
$GPRMC,1626.967059,A,3735.015275,N,12224.33954,W,,,,,,A
$GPRMC,1627.017049,A,3735.01591,N,12224.34011,W,,,,,,A
$GPRMC,1627.06706,A,3735.016544,N,12224.34069,W,,,,,,A
$GPRMC,1627.117065,A,3735.017178,N,12224.34126,W,,,,,,A
$GPRMC,1627.167052,A,3735.017811,N,12224.34184,W,,,,,,A
$GPRMC,1627.21706,A,3735.018444,N,12224.34241,W,,,,,,A
$GPRMC,1627.267067,A,3735.019077,N,12224.34299,W,,,,,,A
$GPRMC,1627.317047,A,3735.019709,N,12224.34357,W,,,,,,A
$GPRMC,1627.367035,A,3735.020341,N,12224.34415,W,,,,,,A
$GPRMC,1627.41703,A,3735.020972,N,12224.34472,W,,,,,,A
$GPRMC,1627.467032,A,3735.021603,N,12224.34531,W,,,,,,A
$GPRMC,1627.517026,A,3735.022233,N,12224.34589,W,,,,,,A
$GPRMC,1627.567028,A,3735.022863,N,12224.34647,W,,,,,,A
$GPRMC,1627.617033,A,3735.023492,N,12224.34705,W,,,,,,A
$GPRMC,1627.667023,A,3735.024121,N,12224.34764,W,,,,,,A
$GPRMC,1627.717024,A,3735.024749,N,12224.34822,W,,,,,,A
$GPRMC,1627.767043,A,3735.025377,N,12224.34881,W,,,,,,A
$GPRMC,1627.817022,A,3735.026005,N,12224.3494,W,,,,,,A
$GPRMC,1627.867041,A,3735.026632,N,12224.34999,W,,,,,,A
$GPRMC,1627.91702,A,3735.027258,N,12224.35058,W,,,,,,A
$GPRMC,1627.967029,A,3735.027884,N,12224.35117,W,,,,,,A
$GPRMC,1628.017027,A,3735.02851,N,12224.35176,W,,,,,,A
$GPRMC,1628.067023,A,3735.029135,N,12224.35235,W,,,,,,A
$GPRMC,1628.117018,A,3735.02976,N,12224.35294,W,,,,,,A
$GPRMC,1628.167023,A,3735.030385,N,12224.35353,W,,,,,,A
$GPRMC,1628.217018,A,3735.031009,N,12224.35413,W,,,,,,A
$GPRMC,1628.267019,A,3735.031632,N,12224.35472,W,,,,,,A
$GPRMC,1628.317014,A,3735.032254,N,12224.35532,W,,,,,,A
$GPRMC,1628.367028,A,3735.032876,N,12224.35591,W,,,,,,A
$GPRMC,1628.417028,A,3735.033498,N,12224.35651,W,,,,,,A
$GPRMC,1628.467032,A,3735.034119,N,12224.35711,W,,,,,,A
$GPRMC,1628.517016,A,3735.03474,N,12224.35771,W,,,,,,A
$GPRMC,1628.567022,A,3735.035361,N,12224.35831,W,,,,,,A
$GPRMC,1628.61701,A,3735.035981,N,12224.35891,W,,,,,,A
$GPRMC,1628.667026,A,3735.0366,N,12224.35951,W,,,,,,A
$GPRMC,1628.717018,A,3735.037219,N,12224.36011,W,,,,,,A
$GPRMC,1628.76701,A,3735.037838,N,12224.36072,W,,,,,,A
$GPRMC,1628.817021,A,3735.038456,N,12224.36132,W,,,,,,A
$GPRMC,1628.867023,A,3735.039073,N,12224.36192,W,,,,,,A
$GPRMC,1628.91701,A,3735.039691,N,12224.36253,W,,,,,,A
$GPRMC,1628.967016,A,3735.040308,N,12224.36313,W,,,,,,A
$GPRMC,1629.017007,A,3735.040924,N,12224.36374,W,,,,,,A
$GPRMC,1629.067012,A,3735.04154,N,12224.36435,W,,,,,,A
$GPRMC,1629.117003,A,3735.042156,N,12224.36496,W,,,,,,A
$GPRMC,1629.167008,A,3735.042771,N,12224.36556,W,,,,,,A
$GPRMC,1629.217006,A,3735.043386,N,12224.36617,W,,,,,,A
$GPRMC,1629.267009,A,3735.044,N,12224.36678,W,,,,,,A
$GPRMC,1629.317044,A,3735.044614,N,12224.36739,W,,,,,,A
$GPRMC,1629.367006,A,3735.045227,N,12224.368,W,,,,,,A
$GPRMC,1629.417007,A,3735.045841,N,12224.36862,W,,,,,,A
$GPRMC,1629.467,A,3735.046454,N,12224.36923,W,,,,,,A
$GPRMC,1629.516996,A,3735.047066,N,12224.36984,W,,,,,,A
$GPRMC,1629.567004,A,3735.047679,N,12224.37046,W,,,,,,A
$GPRMC,1629.617038,A,3735.04829,N,12224.37107,W,,,,,,A
$GPRMC,1629.666999,A,3735.048901,N,12224.37168,W,,,,,,A
$GPRMC,1629.716997,A,3735.049512,N,12224.3723,W,,,,,,A
$GPRMC,1629.767004,A,3735.050123,N,12224.37292,W,,,,,,A
$GPRMC,1629.816994,A,3735.050734,N,12224.37353,W,,,,,,A
$GPRMC,1629.866996,A,3735.051344,N,12224.37415,W,,,,,,A
$GPRMC,1629.916992,A,3735.051954,N,12224.37477,W,,,,,,A
$GPRMC,1629.966996,A,3735.052563,N,12224.37539,W,,,,,,A
$GPRMC,1630.01699,A,3735.053172,N,12224.37601,W,,,,,,A
$GPRMC,1630.067002,A,3735.05378,N,12224.37663,W,,,,,,A
$GPRMC,1630.117006,A,3735.054388,N,12224.37725,W,,,,,,A
$GPRMC,1630.166987,A,3735.054995,N,12224.37787,W,,,,,,A
$GPRMC,1630.216988,A,3735.055602,N,12224.3785,W,,,,,,A
$GPRMC,1630.266993,A,3735.056209,N,12224.37912,W,,,,,,A
$GPRMC,1630.316986,A,3735.056815,N,12224.37974,W,,,,,,A
$GPRMC,1630.366995,A,3735.057421,N,12224.38037,W,,,,,,A
$GPRMC,1630.417003,A,3735.058026,N,12224.381,W,,,,,,A
$GPRMC,1630.466981,A,3735.058631,N,12224.38162,W,,,,,,A
$GPRMC,1630.516981,A,3735.059235,N,12224.38225,W,,,,,,A
$GPRMC,1630.566985,A,3735.059839,N,12224.38288,W,,,,,,A
$GPRMC,1630.617029,A,3735.060442,N,12224.38351,W,,,,,,A
$GPRMC,1630.666987,A,3735.061044,N,12224.38414,W,,,,,,A
$GPRMC,1630.716981,A,3735.061646,N,12224.38477,W,,,,,,A
$GPRMC,1630.766989,A,3735.062247,N,12224.3854,W,,,,,,A
$GPRMC,1630.816979,A,3735.062848,N,12224.38603,W,,,,,,A
$GPRMC,1630.86698,A,3735.063448,N,12224.38666,W,,,,,,A
$GPRMC,1630.916979,A,3735.064047,N,12224.3873,W,,,,,,A
$GPRMC,1630.966982,A,3735.064646,N,12224.38793,W,,,,,,A
$GPRMC,1631.017004,A,3735.065244,N,12224.38857,W,,,,,,A
$GPRMC,1631.066984,A,3735.065841,N,12224.3892,W,,,,,,A
$GPRMC,1631.116976,A,3735.066438,N,12224.38984,W,,,,,,A
$GPRMC,1631.166979,A,3735.067035,N,12224.39048,W,,,,,,A
$GPRMC,1631.216976,A,3735.067632,N,12224.39111,W,,,,,,A
$GPRMC,1631.266994,A,3735.068227,N,12224.39175,W,,,,,,A
$GPRMC,1631.316983,A,3735.068822,N,12224.39239,W,,,,,,A
$GPRMC,1631.366979,A,3735.069417,N,12224.39303,W,,,,,,A
$GPRMC,1631.417,A,3735.070011,N,12224.39367,W,,,,,,A
$GPRMC,1631.466974,A,3735.070604,N,12224.39431,W,,,,,,A
$GPRMC,1631.516979,A,3735.071196,N,12224.39496,W,,,,,,A
$GPRMC,1631.566978,A,3735.071788,N,12224.3956,W,,,,,,A
$GPRMC,1631.61697,A,3735.072379,N,12224.39624,W,,,,,,A
$GPRMC,1631.666974,A,3735.072969,N,12224.39689,W,,,,,,A
$GPRMC,1631.716968,A,3735.073559,N,12224.39753,W,,,,,,A
$GPRMC,1631.766965,A,3735.074149,N,12224.39818,W,,,,,,A
$GPRMC,1631.816981,A,3735.074738,N,12224.39882,W,,,,,,A
$GPRMC,1631.866965,A,3735.075326,N,12224.39947,W,,,,,,A
$GPRMC,1631.916974,A,3735.075914,N,12224.40012,W,,,,,,A
$GPRMC,1631.966971,A,3735.076502,N,12224.40077,W,,,,,,A
$GPRMC,1632.016962,A,3735.077089,N,12224.40141,W,,,,,,A
$GPRMC,1632.066968,A,3735.077675,N,12224.40206,W,,,,,,A
$GPRMC,1632.116966,A,3735.078261,N,12224.40271,W,,,,,,A
$GPRMC,1632.166967,A,3735.078846,N,12224.40336,W,,,,,,A
$GPRMC,1632.216998,A,3735.07943,N,12224.40401,W,,,,,,A
$GPRMC,1632.26696,A,3735.080014,N,12224.40467,W,,,,,,A
$GPRMC,1632.316986,A,3735.080597,N,12224.40532,W,,,,,,A
$GPRMC,1632.366964,A,3735.08118,N,12224.40597,W,,,,,,A
$GPRMC,1632.416972,A,3735.081762,N,12224.40662,W,,,,,,A
$GPRMC,1632.466963,A,3735.082345,N,12224.40728,W,,,,,,A
$GPRMC,1632.517007,A,3735.082925,N,12224.40793,W,,,,,,A
$GPRMC,1632.566961,A,3735.083506,N,12224.40859,W,,,,,,A
$GPRMC,1632.616997,A,3735.084086,N,12224.40924,W,,,,,,A
$GPRMC,1632.666976,A,3735.084666,N,12224.4099,W,,,,,,A
$GPRMC,1632.716959,A,3735.085245,N,12224.41055,W,,,,,,A
$GPRMC,1632.766961,A,3735.085824,N,12224.41121,W,,,,,,A
$GPRMC,1632.817026,A,3735.086401,N,12224.41187,W,,,,,,A
$GPRMC,1632.866965,A,3735.086979,N,12224.41252,W,,,,,,A
$GPRMC,1632.916951,A,3735.087556,N,12224.41318,W,,,,,,A
$GPRMC,1632.967001,A,3735.088133,N,12224.41384,W,,,,,,A
$GPRMC,1633.017028,A,3735.088707,N,12224.4145,W,,,,,,A
$GPRMC,1633.066955,A,3735.089282,N,12224.41516,W,,,,,,A
$GPRMC,1633.116944,A,3735.089857,N,12224.41582,W,,,,,,A
$GPRMC,1633.166956,A,3735.090431,N,12224.41648,W,,,,,,A
$GPRMC,1633.216948,A,3735.091004,N,12224.41714,W,,,,,,A
$GPRMC,1633.266949,A,3735.091577,N,12224.41781,W,,,,,,A
$GPRMC,1633.316952,A,3735.09215,N,12224.41847,W,,,,,,A
$GPRMC,1633.366953,A,3735.092721,N,12224.41913,W,,,,,,A
$GPRMC,1633.416944,A,3735.093292,N,12224.4198,W,,,,,,A
$GPRMC,1633.466943,A,3735.093863,N,12224.42046,W,,,,,,A
$GPRMC,1633.516941,A,3735.094433,N,12224.42113,W,,,,,,A
$GPRMC,1633.566945,A,3735.095002,N,12224.42179,W,,,,,,A
$GPRMC,1633.616939,A,3735.095571,N,12224.42246,W,,,,,,A
$GPRMC,1633.666944,A,3735.096139,N,12224.42312,W,,,,,,A
$GPRMC,1633.71694,A,3735.096707,N,12224.42379,W,,,,,,A
$GPRMC,1633.766948,A,3735.097274,N,12224.42446,W,,,,,,A
$GPRMC,1633.816936,A,3735.09784,N,12224.42513,W,,,,,,A
$GPRMC,1633.866954,A,3735.098405,N,12224.4258,W,,,,,,A
$GPRMC,1633.916935,A,3735.098971,N,12224.42647,W,,,,,,A
$GPRMC,1633.966954,A,3735.099535,N,12224.42714,W,,,,,,A
$GPRMC,1634.016935,A,3735.100099,N,12224.42782,W,,,,,,A
$GPRMC,1634.066953,A,3735.100663,N,12224.42849,W,,,,,,A
$GPRMC,1634.11695,A,3735.101225,N,12224.42916,W,,,,,,A
$GPRMC,1634.166936,A,3735.101787,N,12224.42984,W,,,,,,A
$GPRMC,1634.216932,A,3735.102349,N,12224.43051,W,,,,,,A
$GPRMC,1634.266934,A,3735.10291,N,12224.43119,W,,,,,,A
$GPRMC,1634.31693,A,3735.10347,N,12224.43187,W,,,,,,A
$GPRMC,1634.366934,A,3735.10403,N,12224.43254,W,,,,,,A
$GPRMC,1634.41694,A,3735.104589,N,12224.43322,W,,,,,,A
$GPRMC,1634.466932,A,3735.105147,N,12224.4339,W,,,,,,A
$GPRMC,1634.516932,A,3735.105705,N,12224.43458,W,,,,,,A
$GPRMC,1634.566932,A,3735.106262,N,12224.43526,W,,,,,,A
$GPRMC,1634.616963,A,3735.106818,N,12224.43594,W,,,,,,A
$GPRMC,1634.667022,A,3735.107373,N,12224.43662,W,,,,,,A
$GPRMC,1634.716924,A,3735.107928,N,12224.43731,W,,,,,,A
$GPRMC,1634.766932,A,3735.108482,N,12224.43799,W,,,,,,A
$GPRMC,1634.816921,A,3735.109036,N,12224.43867,W,,,,,,A
$GPRMC,1634.866935,A,3735.109589,N,12224.43936,W,,,,,,A
$GPRMC,1634.916924,A,3735.110141,N,12224.44004,W,,,,,,A
$GPRMC,1634.966921,A,3735.110693,N,12224.44073,W,,,,,,A
$GPRMC,1635.016923,A,3735.111245,N,12224.44142,W,,,,,,A
$GPRMC,1635.066922,A,3735.111796,N,12224.4421,W,,,,,,A
$GPRMC,1635.116919,A,3735.112346,N,12224.44279,W,,,,,,A
$GPRMC,1635.166925,A,3735.112896,N,12224.44348,W,,,,,,A
$GPRMC,1635.216919,A,3735.113446,N,12224.44417,W,,,,,,A
$GPRMC,1635.266919,A,3735.113995,N,12224.44486,W,,,,,,A
$GPRMC,1635.316919,A,3735.114543,N,12224.44555,W,,,,,,A
$GPRMC,1635.366919,A,3735.115091,N,12224.44624,W,,,,,,A
$GPRMC,1635.416915,A,3735.115639,N,12224.44693,W,,,,,,A
$GPRMC,1635.466921,A,3735.116186,N,12224.44762,W,,,,,,A
$GPRMC,1635.516914,A,3735.116734,N,12224.44832,W,,,,,,A
$GPRMC,1635.566924,A,3735.11728,N,12224.44901,W,,,,,,A
$GPRMC,1635.616918,A,3735.117826,N,12224.4497,W,,,,,,A
$GPRMC,1635.666918,A,3735.118372,N,12224.4504,W,,,,,,A
$GPRMC,1635.716912,A,3735.118918,N,12224.45109,W,,,,,,A
$GPRMC,1635.766918,A,3735.119463,N,12224.45179,W,,,,,,A
$GPRMC,1635.816909,A,3735.120008,N,12224.45248,W,,,,,,A
$GPRMC,1635.866927,A,3735.120552,N,12224.45318,W,,,,,,A
$GPRMC,1635.916909,A,3735.121096,N,12224.45388,W,,,,,,A
$GPRMC,1635.966913,A,3735.121639,N,12224.45458,W,,,,,,A
$GPRMC,1636.016908,A,3735.122182,N,12224.45528,W,,,,,,A
$GPRMC,1636.066906,A,3735.122724,N,12224.45598,W,,,,,,A
$GPRMC,1636.116907,A,3735.123266,N,12224.45668,W,,,,,,A
$GPRMC,1636.166909,A,3735.123808,N,12224.45738,W,,,,,,A
$GPRMC,1636.216907,A,3735.124349,N,12224.45808,W,,,,,,A
$GPRMC,1636.26691,A,3735.12489,N,12224.45878,W,,,,,,A
$GPRMC,1636.316902,A,3735.12543,N,12224.45948,W,,,,,,A
$GPRMC,1636.366903,A,3735.12597,N,12224.46019,W,,,,,,A
$GPRMC,1636.4169,A,3735.12651,N,12224.46089,W,,,,,,A
$GPRMC,1636.466907,A,3735.127049,N,12224.4616,W,,,,,,A
$GPRMC,1636.516899,A,3735.127588,N,12224.4623,W,,,,,,A
$GPRMC,1636.566908,A,3735.128126,N,12224.46301,W,,,,,,A
$GPRMC,1636.616898,A,3735.128664,N,12224.46372,W,,,,,,A
$GPRMC,1636.666918,A,3735.129201,N,12224.46442,W,,,,,,A
$GPRMC,1636.7169,A,3735.129738,N,12224.46513,W,,,,,,A
$GPRMC,1636.766909,A,3735.130274,N,12224.46584,W,,,,,,A
$GPRMC,1636.816899,A,3735.13081,N,12224.46655,W,,,,,,A
$GPRMC,1636.866916,A,3735.131346,N,12224.46726,W,,,,,,A
$GPRMC,1636.91693,A,3735.131882,N,12224.46797,W,,,,,,A
$GPRMC,1636.966921,A,3735.132416,N,12224.46868,W,,,,,,A
$GPRMC,1637.016893,A,3735.132951,N,12224.46939,W,,,,,,A
$GPRMC,1637.066898,A,3735.133486,N,12224.4701,W,,,,,,A
$GPRMC,1637.116896,A,3735.13402,N,12224.47081,W,,,,,,A
$GPRMC,1637.166889,A,3735.134554,N,12224.47153,W,,,,,,A
$GPRMC,1637.216904,A,3735.135087,N,12224.47224,W,,,,,,A
$GPRMC,1637.266931,A,3735.13562,N,12224.47295,W,,,,,,A
$GPRMC,1637.316908,A,3735.136151,N,12224.47367,W,,,,,,A
$GPRMC,1637.366895,A,3735.136683,N,12224.47438,W,,,,,,A
$GPRMC,1637.416901,A,3735.137213,N,12224.4751,W,,,,,,A
$GPRMC,1637.466889,A,3735.137743,N,12224.47581,W,,,,,,A
$GPRMC,1637.516885,A,3735.138272,N,12224.47653,W,,,,,,A
$GPRMC,1637.566888,A,3735.138801,N,12224.47725,W,,,,,,A
$GPRMC,1637.616884,A,3735.139329,N,12224.47797,W,,,,,,A
$GPRMC,1637.666885,A,3735.139858,N,12224.47868,W,,,,,,A
$GPRMC,1637.716885,A,3735.140385,N,12224.4794,W,,,,,,A
$GPRMC,1637.76689,A,3735.140913,N,12224.48012,W,,,,,,A
$GPRMC,1637.816881,A,3735.141439,N,12224.48084,W,,,,,,A
$GPRMC,1637.866889,A,3735.141965,N,12224.48156,W,,,,,,A
$GPRMC,1637.916887,A,3735.142491,N,12224.48228,W,,,,,,A
$GPRMC,1637.966887,A,3735.143016,N,12224.483,W,,,,,,A
$GPRMC,1638.016887,A,3735.14354,N,12224.48373,W,,,,,,A
$GPRMC,1638.066881,A,3735.144064,N,12224.48445,W,,,,,,A
$GPRMC,1638.116878,A,3735.144589,N,12224.48517,W,,,,,,A
$GPRMC,1638.166979,A,3735.14511,N,12224.4859,W,,,,,,A
$GPRMC,1638.216874,A,3735.145632,N,12224.48662,W,,,,,,A
$GPRMC,1638.266882,A,3735.146153,N,12224.48735,W,,,,,,A
$GPRMC,1638.316884,A,3735.146674,N,12224.48807,W,,,,,,A
$GPRMC,1638.366893,A,3735.147193,N,12224.4888,W,,,,,,A
$GPRMC,1638.416874,A,3735.147713,N,12224.48953,W,,,,,,A
$GPRMC,1638.466879,A,3735.148232,N,12224.49025,W,,,,,,A
$GPRMC,1638.516881,A,3735.14875,N,12224.49098,W,,,,,,A
$GPRMC,1638.566882,A,3735.149268,N,12224.49171,W,,,,,,A
$GPRMC,1638.616871,A,3735.149785,N,12224.49244,W,,,,,,A
$GPRMC,1638.666874,A,3735.150303,N,12224.49317,W,,,,,,A
$GPRMC,1638.716895,A,3735.150819,N,12224.4939,W,,,,,,A
$GPRMC,1638.766876,A,3735.151335,N,12224.49463,W,,,,,,A
$GPRMC,1638.816869,A,3735.151851,N,12224.49537,W,,,,,,A
$GPRMC,1638.866888,A,3735.152366,N,12224.4961,W,,,,,,A
$GPRMC,1638.916867,A,3735.15288,N,12224.49683,W,,,,,,A
$GPRMC,1638.966873,A,3735.153395,N,12224.49756,W,,,,,,A
$GPRMC,1639.016863,A,3735.153909,N,12224.4983,W,,,,,,A
$GPRMC,1639.066892,A,3735.154422,N,12224.49903,W,,,,,,A
$GPRMC,1639.116864,A,3735.154934,N,12224.49977,W,,,,,,A
$GPRMC,1639.166866,A,3735.155447,N,12224.50051,W,,,,,,A
$GPRMC,1639.216861,A,3735.155958,N,12224.50124,W,,,,,,A
$GPRMC,1639.266868,A,3735.156469,N,12224.50198,W,,,,,,A
$GPRMC,1639.316862,A,3735.156979,N,12224.50272,W,,,,,,A
$GPRMC,1639.366859,A,3735.157489,N,12224.50346,W,,,,,,A
$GPRMC,1639.41687,A,3735.157998,N,12224.5042,W,,,,,,A
$GPRMC,1639.466867,A,3735.158507,N,12224.50493,W,,,,,,A
$GPRMC,1639.516856,A,3735.159015,N,12224.50567,W,,,,,,A
$GPRMC,1639.56688,A,3735.159523,N,12224.50641,W,,,,,,A
$GPRMC,1639.616859,A,3735.160031,N,12224.50716,W,,,,,,A
$GPRMC,1639.666858,A,3735.160538,N,12224.5079,W,,,,,,A
$GPRMC,1639.716857,A,3735.161044,N,12224.50864,W,,,,,,A
$GPRMC,1639.766862,A,3735.16155,N,12224.50938,W,,,,,,A
$GPRMC,1639.816854,A,3735.162056,N,12224.51012,W,,,,,,A
$GPRMC,1639.866859,A,3735.162561,N,12224.51087,W,,,,,,A
$GPRMC,1639.916853,A,3735.163066,N,12224.51161,W,,,,,,A
$GPRMC,1639.966918,A,3735.163569,N,12224.51235,W,,,,,,A
$GPRMC,1640.016855,A,3735.164073,N,12224.5131,W,,,,,,A
$GPRMC,1640.06687,A,3735.164576,N,12224.51384,W,,,,,,A
$GPRMC,1640.116848,A,3735.165079,N,12224.51459,W,,,,,,A
$GPRMC,1640.166857,A,3735.165581,N,12224.51534,W,,,,,,A
$GPRMC,1640.216848,A,3735.166083,N,12224.51608,W,,,,,,A
$GPRMC,1640.26685,A,3735.166585,N,12224.51683,W,,,,,,A
$GPRMC,1640.316875,A,3735.167087,N,12224.51758,W,,,,,,A
$GPRMC,1640.366852,A,3735.167588,N,12224.51832,W,,,,,,A
$GPRMC,1640.41685,A,3735.168089,N,12224.51907,W,,,,,,A
$GPRMC,1640.466841,A,3735.16859,N,12224.51982,W,,,,,,A
$GPRMC,1640.516845,A,3735.169091,N,12224.52057,W,,,,,,A
$GPRMC,1640.566845,A,3735.169592,N,12224.52131,W,,,,,,A
$GPRMC,1640.616866,A,3735.170092,N,12224.52206,W,,,,,,A
$GPRMC,1640.666845,A,3735.170593,N,12224.52281,W,,,,,,A
$GPRMC,1640.716842,A,3735.171093,N,12224.52356,W,,,,,,A
$GPRMC,1640.766846,A,3735.171594,N,12224.5243,W,,,,,,A
$GPRMC,1640.816841,A,3735.172094,N,12224.52505,W,,,,,,A
$GPRMC,1640.866863,A,3735.172594,N,12224.5258,W,,,,,,A
